{
  "default": {
    "id": "default",
    "name": "DK-default",
    "geometry": "Dimension Kernel",
    "type": "dimension_kernel",
    "meta": {
      "address": "ucs://local/default#dimension"
    }
  },
  "tesseract_hq": {
    "id": "tesseract_hq",
    "name": "DK-tesseract_hq",
    "geometry": "Dimension Kernel",
    "type": "dimension_kernel",
    "meta": {
      "address": "ucs://local/tesseract_hq#dimension"
    }
  },
  "engine-A": {
    "id": "engine-A",
    "name": "SEC-engine-A",
    "geometry": "Symbolic Expansion Sphere",
    "type": "container",
    "meta": {
      "address": "ucs://local/engine-A#container"
    }
  },
  "HOB-engine-A": {
    "id": "HOB-engine-A",
    "name": "HOB-engine-A",
    "geometry": "Hoberman Sphere",
    "type": "container",
    "meta": {
      "address": "ucs://local/HOB-engine-A#container"
    }
  },
  "chamber-0": {
    "id": "chamber-0",
    "name": "SEC-chamber-0",
    "geometry": "Symbolic Expansion Sphere",
    "type": "container",
    "meta": {
      "address": "ucs://local/chamber-0#container"
    }
  },
  "HOB-chamber-0": {
    "id": "HOB-chamber-0",
    "name": "HOB-chamber-0",
    "geometry": "Hoberman Sphere",
    "type": "container",
    "meta": {
      "address": "ucs://local/HOB-chamber-0#container"
    }
  },
  "chamber-1": {
    "id": "chamber-1",
    "name": "SEC-chamber-1",
    "geometry": "Symbolic Expansion Sphere",
    "type": "container",
    "meta": {
      "address": "ucs://local/chamber-1#container"
    }
  },
  "HOB-chamber-1": {
    "id": "HOB-chamber-1",
    "name": "HOB-chamber-1",
    "geometry": "Hoberman Sphere",
    "type": "container",
    "meta": {
      "address": "ucs://local/HOB-chamber-1#container"
    }
  },
  "chamber-2": {
    "id": "chamber-2",
    "name": "SEC-chamber-2",
    "geometry": "Symbolic Expansion Sphere",
    "type": "container",
    "meta": {
      "address": "ucs://local/chamber-2#container"
    }
  },
  "HOB-chamber-2": {
    "id": "HOB-chamber-2",
    "name": "HOB-chamber-2",
    "geometry": "Hoberman Sphere",
    "type": "container",
    "meta": {
      "address": "ucs://local/HOB-chamber-2#container"
    }
  },
  "chamber-3": {
    "id": "chamber-3",
    "name": "SEC-chamber-3",
    "geometry": "Symbolic Expansion Sphere",
    "type": "container",
    "meta": {
      "address": "ucs://local/chamber-3#container"
    }
  },
  "HOB-chamber-3": {
    "id": "HOB-chamber-3",
    "name": "HOB-chamber-3",
    "geometry": "Hoberman Sphere",
    "type": "container",
    "meta": {
      "address": "ucs://local/HOB-chamber-3#container"
    }
  },
  "SEC-chamber-0": {
    "id": "SEC-chamber-0",
    "name": "SEC-chamber-0",
    "geometry": "Symbolic Expansion Sphere",
    "type": "SEC",
    "meta": {
      "address": "ucs://local/SEC-chamber-0#container"
    }
  },
  "SEC-chamber-1": {
    "id": "SEC-chamber-1",
    "name": "SEC-chamber-1",
    "geometry": "Symbolic Expansion Sphere",
    "type": "SEC",
    "meta": {
      "address": "ucs://local/SEC-chamber-1#container"
    }
  },
  "SEC-chamber-2": {
    "id": "SEC-chamber-2",
    "name": "SEC-chamber-2",
    "geometry": "Symbolic Expansion Sphere",
    "type": "SEC",
    "meta": {
      "address": "ucs://local/SEC-chamber-2#container"
    }
  },
  "SEC-chamber-3": {
    "id": "SEC-chamber-3",
    "name": "SEC-chamber-3",
    "geometry": "Symbolic Expansion Sphere",
    "type": "SEC",
    "meta": {
      "address": "ucs://local/SEC-chamber-3#container"
    }
  },
  "ElectronShell Test Atom": {
    "id": "ElectronShell Test Atom",
    "name": "ElectronShell Test Atom",
    "geometry": "tesseract",
    "type": "container",
    "meta": {
      "address": "ucs://local/ElectronShell Test Atom#container"
    }
  },
  "Container-atom_electrons_test": {
    "id": "Container-atom_electrons_test",
    "name": "Container-atom_electrons_test",
    "geometry": "tesseract",
    "type": "container",
    "meta": {
      "address": "ucs://local/Container-atom_electrons_test#container"
    }
  }
}